{
    "concordia": {
        "name": "Concordia",
        "lat": -31.4,
        "lon": -58.02
    },
    "parana": {
        "name": "Paraná",
        "lat": -31.74,
        "lon": -60.52
    },
    "gualeguaychu": {
        "name": "Gualeguaychú",
        "lat": -33.01, 
        "lon": -58.52
    },
    "gualeguay": {
        "name": "Guleguay",
        "lat": -33.14, 
        "lon": -59.31
    },
    "lapaz": {
        "name": "La Paz",
        "lat": -30.74,
        "lon": -59.65
    },
    "federal": {
        "name": "Federal",
        "lat": -30.95, 
        "lon": -58.78
    },
    "villaguay": {
        "name": "Villaguay",
        "lat": -31.86, 
        "lon": -59.03
    },
    "chajari": {
        "name": "Chajarí",
        "lat": -30.75, 
        "lon": -57.98
    },
    "sanjose": {
        "name": "San José",
        "lat": -32.22, 
        "lon": -58.22
    },
    "concepciondeluruguay": {
        "name": "Concepción del Uruguay",
        "lat": -32.48, 
        "lon": -58.24
    },
    "diamante": {
        "name": "Diamante",
        "lat": -32.07, 
        "lon": -60.65
    },
    "nogoya": {
        "name": "Nogoyá",
        "lat": -32.39, 
        "lon": -59.79
    },
    "victoria": {
        "name": "Victoria",
        "lat": -32.62, 
        "lon": -60.16
    },
    "rosariodeltala": {
        "name": "Rosario del Tala",
        "lat": -32.3, 
        "lon": -59.13
    },
    "colon": {
        "name": "Colón",
        "lat": -32.22, 
        "lon": -58.14
    }
}